{
"type": "FeatureCollection",
"name": "art_galleries_clip",
"crs": { "type": "name", "properties": { "name": "urn:ogc:def:crs:OGC:1.3:CRS84" } },
"features": [
{ "type": "Feature", "properties": { "city": "Brooklyn", "name": "Mooney Robert J Arts Management", "tel": "(718) 852-9080", "zip": "11201.0", "url": "http:\/\/local.botw.org\/New_York\/Brooklyn\/Mooney_Robert_J_Arts_Management\/34351212.html", "address2": "", "address1": "174 Pacific St" }, "geometry": { "type": "Point", "coordinates": [ -73.993614754243453, 40.689089221275751 ] } },
{ "type": "Feature", "properties": { "city": "Brooklyn", "name": "Under Minerva", "tel": "(718) 788-0170", "zip": "11215.0", "url": "http:\/\/blog.underminerva.com\/", "address2": "", "address1": "656 5th Ave" }, "geometry": { "type": "Point", "coordinates": [ -73.992640594635589, 40.662424448867831 ] } },
{ "type": "Feature", "properties": { "city": "Brooklyn", "name": "Rotunda Gallery", "tel": "(718) 875-4047", "zip": "11201.0", "url": "http:\/\/www.nyc-arts.org\/organizations\/1668\/rotunda-gallery", "address2": "", "address1": "33 Clinton St" }, "geometry": { "type": "Point", "coordinates": [ -73.991467993829986, 40.695157338412059 ] } },
{ "type": "Feature", "properties": { "city": "Brooklyn", "name": "Picture This Corporate Art", "tel": "(718) 625-2722", "zip": "11231.0", "url": "http:\/\/www.ptcanyc.com\/", "address2": "# 102", "address1": "249 Smith Street" }, "geometry": { "type": "Point", "coordinates": [ -73.99260350161633, 40.683241936415882 ] } },
{ "type": "Feature", "properties": { "city": "Brooklyn", "name": "Brooklyn Arts Exchange", "tel": "(718) 832-0018", "zip": "11215.0", "url": "http:\/\/bax.org\/", "address2": "", "address1": "421 Fifth Ave." }, "geometry": { "type": "Point", "coordinates": [ -73.985432820048189, 40.669769418352139 ] } },
{ "type": "Feature", "properties": { "city": "Brooklyn", "name": "Arts Action Research", "tel": "(718) 797-3661", "zip": "11217.0", "url": "http:\/\/www.artsaction.com\/", "address2": "", "address1": "423 Atlantic Ave" }, "geometry": { "type": "Point", "coordinates": [ -73.983387492003132, 40.68664178336951 ] } },
{ "type": "Feature", "properties": { "city": "Brooklyn", "name": "Hut Gallery the", "tel": "(718) 222-9519", "zip": "11201.0", "url": "http:\/\/home.vicnet.net.au\/~thehut\/", "address2": "", "address1": "84 Hoyt St" }, "geometry": { "type": "Point", "coordinates": [ -73.986980658212261, 40.688071767104695 ] } },
{ "type": "Feature", "properties": { "city": "Brooklyn", "name": "Belanthi", "tel": "(718) 624-9420", "zip": "11201.0", "url": "http:\/\/yp.blogflux.com\/directory\/us\/new-york\/brooklyn\/belanthi-142-court-st\/", "address2": "", "address1": "142 Court St" }, "geometry": { "type": "Point", "coordinates": [ -73.992923802332598, 40.689201818871105 ] } },
{ "type": "Feature", "properties": { "city": "Brooklyn", "name": "Available Art Llc", "tel": "(917) 237-1668", "zip": "11217.0", "url": "http:\/\/www.nyc.com\/arts__attractions\/available_art_llc.905\/map_location.aspx", "address2": "", "address1": "204 Dean St" }, "geometry": { "type": "Point", "coordinates": [ -73.985292864930429, 40.685308792518455 ] } },
{ "type": "Feature", "properties": { "city": "Brooklyn", "name": "Object-Image", "tel": "(718) 623-2434", "zip": "11217.0", "url": "http:\/\/www.laurafantini.it\/Documents\/For_Immediate_Release09_2.pdf", "address2": "", "address1": "91 5th Ave" }, "geometry": { "type": "Point", "coordinates": [ -73.977898334822456, 40.67984870697147 ] } },
{ "type": "Feature", "properties": { "city": "Brooklyn", "name": "Art Vue", "tel": "(212) 995-2008", "zip": "11215.0", "url": "http:\/\/www.artvue.com\/", "address2": "", "address1": "441 3rd St" }, "geometry": { "type": "Point", "coordinates": [ -73.980098357164493, 40.671529522114525 ] } },
{ "type": "Feature", "properties": { "city": "Brooklyn", "name": "Axelle Fine Art", "tel": "(718) 246-1800", "zip": "11201.0", "url": "http:\/\/www.axelle.com\/", "address2": "", "address1": "312 Atlantic Ave" }, "geometry": { "type": "Point", "coordinates": [ -73.988511979260025, 40.688077775396991 ] } },
{ "type": "Feature", "properties": { "city": "Brooklyn", "name": "Hanover Sq Gallery", "tel": "(212) 344-4406", "zip": "11238.0", "url": "http:\/\/www.artnet.com\/gallery\/116829\/hanover-square-gallery.html", "address2": "", "address1": "202 Park Place" }, "geometry": { "type": "Point", "coordinates": [ -73.971283813085265, 40.676988341293075 ] } }
]
}
